[
  {
    "_id": "5fbfee9766b98d23c0d38ca1",
    "name": "Delhi_Airport",
    "city": "Delhi",
    "latitude": 28.666667,
    "longitude": 77.216667
  },
  {
    "_id": "5fbfee9766b98d23c0d38ca2",
    "name": "Bangalore_Airport",
    "city": "Bangalore",
    "latitude": 12.983333,
    "longitude": 77.583333
  },
  {
    "_id": "5fbfee9766b98d23c0d38ca3",
    "name": "Hyderabad_Airport",
    "city": "Hyderabad",
    "latitude": 17.375278,
    "longitude": 78.474444
  },
  {
    "_id": "5fbfee9766b98d23c0d38ca4",
    "name": "Ahmedabad_Airport",
    "city": "Ahmedabad",
    "latitude": 23.033333,
    "longitude": 72.616667
  },
  {
    "_id": "5fbfee9766b98d23c0d38ca5",
    "name": "Chennai_Airport",
    "city": "Chennai",
    "latitude": 13.083333,
    "longitude": 80.283333
  },
  {
    "_id": "5fbfee9766b98d23c0d38ca6",
    "name": "Kolkata_Airport",
    "city": "Kolkata",
    "latitude": 22.569722,
    "longitude": 88.369722
  },
  {
    "_id": "5fbfee9766b98d23c0d38ca7",
    "name": "Surat_Airport",
    "city": "Surat",
    "latitude": 20.966667,
    "longitude": 72.9
  },
  {
    "_id": "5fbfee9766b98d23c0d38ca8",
    "name": "Pune_Airport",
    "city": "Pune",
    "latitude": 18.533333,
    "longitude": 73.866667
  }
]